id,name,latitude,longitude,kind,media
11,AV. MARGINAL SÃO PAULO X ALPHAVILLE- CASTELLO BRANCO KM 18+200M LD,-23.5135375,-46.7964282,RODOVIA,FRONTLIGHT 
12,AV. MARGINAL SÃO PAULO X ALPHAVILLE- CASTELLO BRANCO KM 18+200M LD,-23.5135375,-46.7964282,RODOVIA,FRONTLIGHT 
13,AV. MARGINAL SÃO PAULO X ALPHAVILLE- CASTELLO BRANCO KM 18+334M LD,-23.5128952,-46.7979086,RODOVIA,FRONTLIGHT 
14,AV. MARGINAL SÃO PAULO X ALPHAVILLE- CASTELLO BRANCO  KM 18+334M LD,-23.5128952,-46.7979086,RODOVIA,FRONTLIGHT 
15,AV. MARGINAL SÃO PAULO X ALPHAVILLE- CASTELLO BRANCO  KM 18+445M LD,-23.5124895,-46.7993142,RODOVIA,FRONTLIGHT 
16,AV. MARGINAL SÃO PAULO X ALPHAVILLE- CASTELLO BRANCO KM 18+445M LD,-23.5124895,-46.7993142,RODOVIA,FRONTLIGHT 
17,AV. MARGINAL SÃO PAULO X ALPHAVILLE- CASTELLO BRANCO KM 18+545M,-23.5127,-46.7985212,RODOVIA,FRONTLIGHT 
18,AV. MARGINAL SÃO PAULO X ALPHAVILLE- CASTELLO BRANCO  KM 18+545M,-23.5127,-46.7985212,RODOVIA,FRONTLIGHT 
21,AV. MARGINAL SÃO PAULO X ALPHAVILLE- CASTELLO BRANCO KM 18+860M LD,-23.5113992,-46.8028137,RODOVIA,FRONTLIGHT 
22,AV. MARGINAL SÃO PAULO X ALPHAVILLE- CASTELLO BRANCO  KM 18+860M LD,-23.5113992,-46.8028137,RODOVIA,FRONTLIGHT 
23,AV. MARGINAL SÃO PAULO X ALPHAVILLE- CASTELLO BRANCO  KM 19+078M LD,-23.5106758,-46.8053998,RODOVIA,FRONTLIGHT 
24,AV. MARGINAL SÃO PAULO X ALPHAVILLE- CASTELLO BRANCO  KM 19+078M LD,-23.5106758,-46.8053998,RODOVIA,FRONTLIGHT 
26,RODOVIA CASTELLO BRANCO KM 28+400M LD,-23.5062137,-46.8952395,RODOVIA,FRONTLIGHT 
28,RODOVIA CASTELLO BRANCO KM 34+200M LE,-23.5192835,-46.9527677,RODOVIA,FRONTLIGHT 
29,RODOVIA CASTELLO BRANCO KM 34+400M LE,-23.519338,-46.9521483,RODOVIA,FRONTLIGHT 
31,RODOVIA CASTELLO BRANCO KM 38+400M LD,-23.4921836,-46.9872162,RODOVIA,FRONTLIGHT 
32,RODOVIA CASTELLO BRANCO KM 41+200M LD,-23.4777815,-46.9988226,RODOVIA,FRONTLIGHT 
42,RODOVIA CASTELLO BRANCO KM 55+300M LE,-23.4345075,-47.1222961,RODOVIA,FRONTLIGHT 
43,RODOVIA CASTELLO BRANCO KM 62-  LE,-23.4208939,-47.1786954,RODOVIA,FRONTLIGHT 
44,RODOVIA CASTELLO BRANCO KM 62- LE,-23.420671,-47.1823889,RODOVIA,FRONTLIGHT 
47,RODOVIA CASTELLO BRANCO KM 65+200M LE,-23.4188933,-47.2120776,RODOVIA,FRONTLIGHT 
48,RODOVIA CASTELLO BRANCO KM 74+400M LD,-23.4063559,-47.2979181,RODOVIA,FRONTLIGHT 
49,RODOVIA CASTELLO BRANCO KM 78 LE,-23.4020961,-47.3275673,RODOVIA,FRONTLIGHT 
52,RODOVIA CASTELLO BRANCO KM 122+500M LD,-23.2909359,-47.741045,RODOVIA,FRONTLIGHT 
53,RODOVIA CASTELLO BRANCO KM 128 LD,-23.2831719,-47.796838,RODOVIA,FRONTLIGHT 
55,RODOVIA DOS IMIGRANTES KM 24+500M LE,-23.7520704,-46.5947578,RODOVIA,FRONTLIGHT 
56,RODOVIA DOS IMIGRANTES KM 24+500M LE,-23.7532323,-46.5943143,RODOVIA,FRONTLIGHT 
58,RODOVIA DOS IMIGRANTES KM 30+300M LE,-23.8027082,-46.5899987,RODOVIA,FRONTLIGHT 
59,RODOVIA DOS IMIGRANTES KM 30+300M LE,-23.8044563,-46.589201,RODOVIA,FRONTLIGHT 
60,RODOVIA DOS IMIGRANTES KM 31+130M LE,-23.8083495,-46.5872039,RODOVIA,FRONTLIGHT 
61,RODOVIA DOS IMIGRANTES KM 31+130M LE,-23.8114071,-46.5858065,RODOVIA,FRONTLIGHT 
74,RODOVIA RAPOSO TAVARES KM 142 LE,-23.5600708,-47.8402234,RODOVIA,FRONTLIGHT 
88,RODOVIA SEN. JOSÉ ERMÍRIO DE MORAES KM 2+500 M LE,-23.4638687,-47.414777,RODOVIA,FRONTLIGHT 
114,RODOVIA ROMANO SCHINCARIOL KM 135 + 600 LD,-23.4833521,-47.9750484,RODOVIA,FRONTLIGHT 
116,RODOVIA ROMANO SCHINCARIOL KM 141 + 800 LD,-23.5361714,-47.964299,RODOVIA,FRONTLIGHT 
120,RODOVIA DOS BANDEIRANTES KM 42 LE,-23.297725,-46.8413897,RODOVIA,FRONTLIGHT 
121,RODOVIA DOS BANDEIRANTES KM 53 + 020M,-23.228835,-46.899457,RODOVIA,FRONTLIGHT 
160,RODOVIA ROMANO SCHINCARIOL KM 141 + 500 LD,-23.5361714,-47.964299,RODOVIA,FRONTLIGHT 
161,RODOVIA ANHANGUERA KM 116 LE,-22.781683,-47.2317852,RODOVIA,FRONTLIGHT 
162,RODOVIA CASTELLO BRANCO KM 136,-23.258071,-47.8733794,RODOVIA,FRONTLIGHT 
264,RODOVIA CASTELLO BRANCO KM 39+820 LE,-23.4887661,-46.9897199,RODOVIA,FRONTLIGHT 
266,RODOVIA ANHANGUERA KM 69 LD,-23.1132063,-46.9577415,RODOVIA,FRONTLIGHT 
269,RODOVIA CASTELLO BRANCO KM 59 LD,-23.4230903,-47.1540464,RODOVIA,FRONTLIGHT 
283,RODOVIA ROMANO SCHINCARIOL KM 117+600M,-23.3564951,-47.8809193,RODOVIA,FRONTLIGHT 
288,RODOVIA DOS IMIGRANTES KM 20+000M LD,-23.7160318,-46.6052432,RODOVIA,FRONTLIGHT 
289,RODOVIA DOS IMIGRANTES KM 20+000M LD,-23.7160318,-46.6052432,RODOVIA,FRONTLIGHT 
310,RODOVIA CASTELLO BRANCO KM 192+700 M LD,-23.1506706,-48.3913612,RODOVIA,FRONTLIGHT 
314,RODOVIA RAPOSO TAVARES KM 164+300 LE,-23.602525,-48.0440256,RODOVIA,FRONTLIGHT 
315,RODOVIA ROMANO SCHINCARIOL KM 111+500 LD,-23.3272854,-47.8389873,RODOVIA,FRONTLIGHT 
334,RODOVIA DOS BANDEIRANTES KM 57 LE,-23.2015048,-46.9274225,RODOVIA,FRONTLIGHT 
335,RODOVIA DOS BANDEIRANTES KM 57 LE,-23.1991077,-46.9282434,RODOVIA,FRONTLIGHT 
336,RODOVIA RAPOSO TAVARES KM 94  LE,-23.5036808,-47.4125191,RODOVIA,FRONTLIGHT 
339,RODOVIA CASTELLO BRANCO KM 76 LD,-23.4039817,-47.3176222,RODOVIA,FRONTLIGHT 
340,RODOVIA RIO SANTOS KM 192+800M,-23.7571128,-45.8585637,RODOVIA,FRONTLIGHT 
341,RODOVIA RIO SANTOS KM 192+800M,-23.7569937,-45.8576206,RODOVIA,FRONTLIGHT 
343,RODOVIA ANCHIETA KM 28,-23.769137,-46.5340662,RODOVIA,FRONTLIGHT 
344,RODOVIA ANCHIETA KM 28,-23.768195,-46.534297,RODOVIA,FRONTLIGHT 
348,RODOVIA CASTELLO BRANCO KM 40 + 760M LE,-23.48373,-46.9938082,RODOVIA,FRONTLIGHT 
354,RODOVIA RAPOSO TAVARES KM 110+200 LD,-23.5097591,-47.5518292,RODOVIA,FRONTLIGHT 
356,RODOVIA ANHANGUERA KM 116 LE,-22.781683,-47.2317852,RODOVIA,FRONTLIGHT 
359,"ROD. ARCHIMEDES LAMMOGLIA, KM 26+500M LE",-23.2835375,-47.3286786,RODOVIA,FRONTLIGHT 
361,RODOVIA CASTELLO BRANCO KM 76 LD,-23.4045229,-47.3135793,RODOVIA,FRONTLIGHT 
364,RODOVIA SANTOS DUMONT KM 62 + 500 M LE,-23.0532907,-47.1444981,RODOVIA,FRONTLIGHT 
378,RODOVIA RAPOSO TAVARES KM 138+500M LD,-23.557279,-47.8070779,RODOVIA,FRONTLIGHT 
382,"ROD. CASTELLO BRANCO, KM 96+700",-23.3543706,-47.5074514,RODOVIA,FRONTLIGHT 
384,ROD. CASTELLO BRANCO KM 109+200M,-23.3180452,-47.6229614,RODOVIA,FRONTLIGHT 
392,RODOVIA FERNÃO DIAS KM 58 + 100M LD,-23.2754709,-46.585524,RODOVIA,FRONTLIGHT 
394,RODOVIA DOS BANDEIRANTES KM 41 + 700 M,-23.3011513,-46.8409851,RODOVIA,FRONTLIGHT 
395,RODOVIA ANHANGUERA KM 51 LE,-23.2487297,-46.8660402,RODOVIA,FRONTLIGHT 
396,RODOVIA ANHANGUERA KM 51 LD,-23.2506513,-46.8658273,RODOVIA,FRONTLIGHT 
397,RODOVIA ANHANGUERA KM 69 +200M LE,-23.1079617,-46.9611416,RODOVIA,FRONTLIGHT 
398,RODOVIA GOV. CARVALHO PINTO KM 70+700 LD,-23.3467328,-46.0440289,RODOVIA,FRONTLIGHT 
406,RODOVIA CASTELLO BRANCO KM 154 + 800,-23.2462872,-48.0453911,RODOVIA,FRONTLIGHT 
429,RODOVIA JOÃO CERESER KM 66 +800M,-23.1546489,-46.8835427,RODOVIA,FRONTLIGHT 
431,RODOVIA CASTELLO BRANCO KM 144+500,-23.2525828,-47.9510309,RODOVIA,FRONTLIGHT 
448,SP 270 ROD. RAPOSO TAVARES 110+200M,-23.5097591,-47.5518292,RODOVIA,FRONTLIGHT 
453,ROD. GOV. DR. ADHEMAR PEREIRA DE BARROS KM126-LD,-22.7441571,-47.0195424,RODOVIA,FRONTLIGHT 
455,"SP 270 RODOVIA RAPOSO TAVARES, KM 95 LD",-23.5099314,-47.4196202,RODOVIA,FRONTLIGHT 
457,"SP 075 - ROD. SANTOS DUMONT, KM 55 - PISTA SUL- SENTIDO INDAIATUBA E VIRACOPOS",-23.100874,-47.196356,RODOVIA,FRONTLIGHT 
458,"SP 270 RODOVIA RAPOSO TAVARES, KM 94 +200M - LE- SENTIDO SHOPPING IGUATEMI ESPLANADA",-23.5051942,-47.4142455,RODOVIA,FRONTLIGHT 
459,"RODOVIA CASTELLO BRANCO, KM 69",-23.419552,-47.250763,RODOVIA,FRONTLIGHT 
463,"SP 79 - RODOVIA WALDOMIRO CAMARGO KM 57,5",-23.3587997,-47.3068674,RODOVIA,FRONTLIGHT 
466,"AV. ERMELINDO MAFFEI , 423  SENTIDO SHOPPING",-23.2619866,-47.2882195,URBANO,FRONTLIGHT 
467,"AV. ERMELINDO MAFFEI, 423 - SENTIDO CENTRO",-23.2621975,-47.288943,URBANO,FRONTLIGHT 
474,VIA EXPRESSA ITU X SALTO,-23.2536724,-47.305212,URBANO,FRONTLIGHT 
475,VIA EXPRESSA ITU X SALTO,-23.2544797,-47.3050248,URBANO,FRONTLIGHT 
476,"AV. ERMELINDO MAFFEI, 1164",-23.2657063,-47.2806763,URBANO,FRONTLIGHT 
477,"AV. ERMELINDO MAFFEI,1164 - SENTIDO CENTRO",-23.2653651,-47.2812693,URBANO,FRONTLIGHT 
479,"ROD. ARCHIMEDES LAMMOGLIA KM 15,8 - SENTIDO ITU",-23.3794487,-47.3273437,RODOVIA,FRONTLIGHT 
485,ROD. DOS IMIGRANTES KM 30+880 LE,-23.3794487,-47.3273437,RODOVIA,FRONTLIGHT 
486,ROD. DOS IMIGRANTES KM 30+880 LD,-23.805286,-46.5889332,RODOVIA,FRONTLIGHT 
487,"RODOVIA CASTELO BRANCO, KM 38+200M LE",-23.4954493,-46.9849717,RODOVIA,FRONTLIGHT 
498,"ROD. SENADOR JOSÉ ERMIRIO DE MORAES, KM 11+000M - LE- SENTIDO SOROCABA",-23.4183539,-47.3489228,RODOVIA,FRONTLIGHT 
499,"ROD.CELSO CHARURI,KM 2+500M LD -SENT.RAPOSO TAVARES ",-23.4729731,-47.3808546,RODOVIA,FRONTLIGHT 
510,"RODOVIA RAPOSO TAVARES, KM 57+000 - LD",-23.5553639,-47.1091677,RODOVIA,FRONTLIGHT 
511,"ROD. JOÃO LEME DOS SANTOS, KM 104",-23.5503876,-47.4846883,RODOVIA,FRONTLIGHT 
512,"ROD. ARCHIMEDES LAMMOGLIA, KM 19 LE- SENTIDO RODOVIA CASTELLO BRANCO X SOROCABA",-23.3570829,-47.3258105,RODOVIA,FRONTLIGHT 
523,RODOVIA CASTELLO BRANCO KM 39+540 LE- SENTIDO ECOPARADA MADERO,-23.4903338,-46.9885,RODOVIA,FRONTLIGHT 
524,"ROD. ARCHIMEDES LAMMOGLIA, KM 29+350  - LD- SENTIDO CAMPINAS",-23.2600628,-47.3229957,RODOVIA,FRONTLIGHT 
528,SP 300 - MARECHAL RONDON KM 309+300M LE,-22.5390847,-48.8601107,RODOVIA,FRONTLIGHT 
529,"SP 330- RODOVIA ANHANGUERA, KM 173 +200M LD- SENTIDO PIRASSUNUNGA",-22.3259664,-47.3894642,RODOVIA,FRONTLIGHT 
530,SP310-WASHINGTON LUÍS KM 251+800- LD-SENTIDO IBATÉ,-21.9258113,-48.0265037,RODOVIA,FRONTLIGHT 
531,BR 381- FERNÃO DIAS KM 22+500M- LD,-22.998648,-46.5180784,RODOVIA,FRONTLIGHT 
532,BR 116- RÉGIS BITTENCOURT KM 439+150M,-24.4529023,-47.810817,RODOVIA,FRONTLIGHT 
533,SP 310- FELICIANO SALLES DA CUNHA KM 619+200M - LD,-20.6146612,-51.0634774,RODOVIA,FRONTLIGHT 
535,SP 360- ENG. GERALDO MANTOVANI KM 160+550M- LD,-22.5478283,-46.6586181,RODOVIA,FRONTLIGHT 
538,"SP 270 RODOVIA RAPOSO TAVARES , KM 155+700",-23.5964842,-47.9618081,RODOVIA,FRONTLIGHT 
540,"RODOVIA SANTOS DUMONT, KM 67+200",-23.0158756,-47.1187113,RODOVIA,FRONTLIGHT 
541,SP 083 ANEL VIÁRIO MAGALHÃES TEIXEIRA - KM 04+600M- LIGAÇÃO VINHEDO X VALINHOS X CAMPINAS,-22.9254608,-47.0109609,RODOVIA,FRONTLIGHT 
544,RODOVIA CASTELLO BRANCO KM 31+900M,-23.5169662,-46.9295337,RODOVIA,FRONTLIGHT 
546,"ROD. ARCHIMEDES LAMMOGLIA, KM 31+900M-  LE",-23.2838148,-47.3287352,RODOVIA,FRONTLIGHT 
839,AV. JUSCELINO KUBITSCHEK - PAINEL LED - ESQUINA ESTACIONAMENTO (MUDAR Nº DE PONTO),-23.5059244,-47.4606713,URBANO,PAINEL DE LED
549,RODOVIA SEN. JOSÉ ERMÍRIO DE MORAES KM 2+600M -LE,-23.4638687,-47.414777,RODOVIA,FRONTLIGHT 
550,ALÇA DA CASTELINHO COM AV. MARGINAL DOM AGUIRRE I,-23.4800987,-47.4412883,RODOVIA,FRONTLIGHT 
551,PONTE DA CASTELINHO SOBRE AV. DOM AGUIRRE,-23.4789645,-47.4415034,RODOVIA,FRONTLIGHT 
552,"AV.IZORAIDA M.PERES,170- EXTRA-IGUATEMI- CAMPOLIM",-23.5314968,-47.4650583,URBANO,FRONTLIGHT 
553,"AV.IZORAIDA M.PERES,170- EXTRA-IGUATEMI- CENTRO",-23.5314968,-47.4650583,URBANO,FRONTLIGHT 
554,ALÇA DA CASTELINHO X AV. MARGINAL DOM AGUIRRE II,-23.4798155,-47.4400393,RODOVIA,FRONTLIGHT 
555,"ROD.CELSO CHARURI,KM 01-SENT.RAPOSO E AV.SÃO PAULO",-23.4843818,-47.3882588,RODOVIA,FRONTLIGHT 
557,"SP 280 - RODOVIA CASTELLO BRANCO, KM 77 - LD- SENTIDO SÃO PAULO",-23.4033107,-47.3193867,RODOVIA,FRONTLIGHT 
558,"ROD. PRESIDENTE DUTRA, KM 166+700M LD",-23.3014936,-46.0215787,RODOVIA,FRONTLIGHT 
559,"RODOVIA CARVALHO PINTO, KM 110+800M LE",-23.1819129,-45.728096,RODOVIA,FRONTLIGHT 
560,"ROD.SENADOR J. ERMIRIO DE MORAES-KM 0,6-CASTELINHO- SENTIDO SOROCABA",-23.4744594,-47.4334865,RODOVIA,FRONTLIGHT 
567,RODOVIA RODOANEL MARIO COVAS KM 41+500M LE,-23.7281515,-46.8082053,RODOVIA,FRONTLIGHT 
568,"RODOVIA CASTELLO BRANCO , KM 74",-23.4076516,-47.291753,RODOVIA,FRONTLIGHT 
569,"AV.ANTONIO CARLOS COMITRÊ, 311- CAMPOLIM- I-  JUSTIÇA FEDERAL - SENT. CENTRO",-23.5184379,-47.4642746,URBANO,TRIEDRO
570,"AV. ANTONIO CARLOS COMITRE, 311- CAMPOLIM  - II - JUSTIÇA FEDERAL - SENTIDO CENTRO",-23.5184379,-47.4642746,URBANO,TRIEDRO
571,"AV. ANTONIO CARLOS COMITRE, 311- CAMPOLIM  - III - JUSTIÇA FEDERAL - SENTIDO CENTRO",-23.5184379,-47.4642746,URBANO,TRIEDRO
572,"ROD. SENADOR JOSÉ ERMIRIO DE MORAES KM 12,4 - LD - SENTIDO SOROCABA",-23.4098015,-47.3405337,RODOVIA,FRONTLIGHT 
573,WASHINGTON LUÍS KM 251+600M LD,-21.9272048,-48.0250381,RODOVIA,FRONTLIGHT 
734,ROD. RAPOSO TAVARES KM 101+200M - SENTIDO CAPITAL,-23.5318218,-47.4764288,RODOVIA,FRONTLIGHT 
786,"RODOVIA CASTELLO BRANCO, KM 112+500M LE",-23.3081741,-47.6524055,RODOVIA,FRONTLIGHT 
787,"RODOVIA CASTELLO BRANCO, KM 112+500M LE",-23.3081741,-47.6524055,RODOVIA,FRONTLIGHT 
801,"RODOVIA CASTELLO BRANCO, KM 75+700M LE",-23.4047624,-47.3121096,RODOVIA,FRONTLIGHT 
806,SP 270 - RAPOSO TAVARES KM 430,-22.6993407,-50.2842273,RODOVIA,FRONTLIGHT 
807,RAPOSO TAVARES KM 567+500M - FACE ASSIS,-22.13276,-51.4206977,RODOVIA,FRONTLIGHT 
808,ROD. RAPOSO TAVARES KM 164 LD - SENTIDO FKB,-23.601663,-48.0420411,RODOVIA,FRONTLIGHT 
809,ROS. COMANDANTE JOÃO RIBEIRO DE BARROS KM 437+400M - PARAÍSO,-22.216342,-49.8399179,RODOVIA,FRONTLIGHT 
810,ROD. RAPOSO TAVARES KM 567+500M,-22.216342,-50.2842273,RODOVIA,FRONTLIGHT 
812,RODOVIA CASTELLO BRANCO KM 96,-23.3551811,-47.5056619,RODOVIA,FRONTLIGHT 
813,RODOVIA CANDIDO PORTINARI KM 334+800M,-21.0198624,-47.6669272,RODOVIA,FRONTLIGHT 
815,ROD. ASSIS CHATEABUBRIAND KM 101+200M,-20.5434828,-48.6204848,RODOVIA,FRONTLIGHT 
816,RODOVIA PRESIDENTE DUTRA KM 214+350M,-23.445166,-46.449936,RODOVIA,FRONTLIGHT 
817,RODOVIA PRESIDENTE DUTRA KM 214 +350M,-23.445166,-46.449936,RODOVIA,FRONTLIGHT 
818,RODOVIA PRESIDENTE DUTRA KM 214+250M,-23.444750,-46.449066,RODOVIA,FRONTLIGHT 
819,RODOVIA PRESIDENTE DUTRA KM 214+250M,-23.444750,-46.449066,RODOVIA,FRONTLIGHT 
820,ROD CASTELLO BRANCO KM 90+050M,-23.3719001,-47.4478007,RODOVIA,FRONTLIGHT 
500662,AV. VEREADOR ÂNGELO BIAGIONE  - CENTRO - FEIRA-1,-23.2812877,-47.6738419,URBANO,OUTDOOR
500663,AV. VEREADOR ÂNGELO BIAGIONE  - CENTRO - FEIRA-2,-23.2812877,-47.6738419,URBANO,OUTDOOR
500664,AV. VEREADOR ÂNGELO BIAGIONE  - CENTRO - FEIRA-3,-23.2812877,-47.6738419,URBANO,OUTDOOR
500665,R.DJALMA DE ARRUDA - LINHA FÉRREA - CENTRO-1,-23.280319, -47.677510,URBANO,OUTDOOR
500669,AV WASHINGTON LUIZ - CENTRO - VIADUTO - 1,-23.170344,-47.741197,URBANO,OUTDOOR
500670,AV WASHINGTON LUIZ - CENTRO - VIADUTO - 2,-23.170366,-47.741120,URBANO,OUTDOOR
500671,CENTRO DE EVENTOS - ENTRADA DA CIDADE,-23.177718,-47.738285,URBANO,OUTDOOR
500672,PRAÇA DA MATRIZ - 1,-23.163100,-47.744543,URBANO,OUTDOOR
500673,PRAÇA DA MATRIZ - 2,-23.163065,-47.744588,URBANO,OUTDOOR
500120,RODOVIA RAPOSO TAVARES KM 170 LE - SENTIDO FKB,-23.6175554,-48.0797805,RODOVIA,OUTDOOR
500123,AV. DR CYRO DE ALBUQUERQUE - 1 - ENTRADA CIDADE,-23.5711085, -47.981154,URBANO,OUTDOOR
500125,AV. DR CYRO DE ALBUQUERQUE - 2 - ENTRADA CIDADE,-23.571123,-47.982886,URBANO,OUTDOOR
500126,AV. DR CYRO DE ALBUQUERQUE - 3 - ENTRADA CIDADE,-23.571209,-47.985327,URBANO,OUTDOOR
500127,AV. DR CYRO DE ALBUQUERQUE - 4 - ENTRADA CIDADE,-23.571318,-47.988051,URBANO,OUTDOOR
500128,R: CEL. PEDRO DIAS BATISTA ESQ.X RUA RODOLFO M.LEONEL I,-23.5897543,-48.042098,URBANO,OUTDOOR
500129,R: CEL. PEDRO D.BATISTA ESQ.X RUA RODOLFO M.LEONEL II,-23.5897543,-48.042098,URBANO,OUTDOOR
500174,RUA FRANCISCO CORREA DA SILVA - ASILO MONT SERRAT,-23.593825,-48.0614544,URBANO,OUTDOOR
500190,RUA JULIO PRESTES - BANCO DO BRASIL - CENTRO,-23.5896839,-48.0523167,URBANO,OUTDOOR
500191,R CAMPOS SALES / R GAL CARNEIRO - IGREJA S.ANTONIO,-23.590190,-48.055306,URBANO,OUTDOOR
500193,RUA PRUDENTE DE MORAES - 2 - SEMÁFORO,-23.590190,-48.055306,URBANO,OUTDOOR
500194,RUA PRUDENTE DE MORAES - 3 - SEMÁFORO,-23.586515, -48.051657,URBANO,OUTDOOR
500195,RUA JULIO PRESTES - VILA SANTANA,-23.586778,-48.052577,URBANO,OUTDOOR
500196,AV. 5 DE NOVEMBRO - VILA MÁXIMO,-23.588616,-48.057688,URBANO,OUTDOOR
500199,RUA PRUDENTE DE MORAES - 1,-23.586519,-48.051656,URBANO,OUTDOOR
500204,AV. 5 DE NOVEMBRO - BIFURC - LE - ENTRADA CIDADE,-23.593191,-48.059459,URBANO,OUTDOOR
500205,AV. 5 DE NOVEMBRO - BIFURC - LD - ENTRADA CIDADE,-23.593191,-48.059459,URBANO,OUTDOOR
500214,RUA QUINTINO BOCAIUVA - POSTO BR 3,-23.592772,-48.057013,URBANO,OUTDOOR
500215,RUA QUINTINO BOCAIUVA - POSTO BR 4,-23.592772,-48.057013,URBANO,OUTDOOR
500218,AV. JOAO BARTH - LE 1,-23.593072,-48.050778,URBANO,OUTDOOR
500219,AV. JOAO BARTH - LE 2,-23.593072,-48.050778,URBANO,OUTDOOR
500220,AV. JOAO BARTH - LD 1,-23.593072,-48.050778,URBANO,OUTDOOR
500221,AV. JOAO BARTH - LD 2,-23.593072,-48.050778,URBANO,OUTDOOR
500222,RUA DOMINGOS JOSÉ VIEIRA X PADRE ALBUQUERQUE,-23.5841416,-48.041978,URBANO,OUTDOOR
500225,AV. DARCY VIEIRA / AV. TTE URIAS - ACADEMIA MOVING,-23.595869,-48.038673,URBANO,OUTDOOR
500229,RUA VIRGILIO DE REZENDE - HOTEL IPORÃ - LD,-23.585022, -48.034416,URBANO,OUTDOOR
500230,AV. DR. CYRO DE ALBUQUERQUE - COND. OURO VILLE,-23.572093, -48.015321,URBANO,OUTDOOR
500231,AV. DR CYRO DE ALBUQUERQUE - 5 - ENTRADA CIDADE,-23.571587,-48.000545,URBANO,OUTDOOR
500238,RUA DR COUTINHO - SHOPPING - LE,-23.578444,-48.035853,URBANO,OUTDOOR
500239,RUA DR COUTINHO - SHOPPING - LD,-23.578444,-48.035853,URBANO,OUTDOOR
500242,AV. JOSÉ DE A. CARVALHO - OURO SAFRA - SEMÁFORO,-23.581343,-48.034005,URBANO,OUTDOOR
500269,AV. NISHIMBO DO BRASIL - CENTRO - SEMÁFORO,-23.593001,-48.053747,URBANO,OUTDOOR
500281,RUA QUINTINO BOCAIUVA - POSTO BR 1,-23.592772,-48.057013,URBANO,OUTDOOR
500282,RUA QUINTINO BOCAIUVA - POSTO BR 2,-23.592772,-48.057013,URBANO,OUTDOOR
500292,AV. MARGINAL - CENTRAL PARK - LD - FACE C.PARK,-23.596959, -48.043505,URBANO,OUTDOOR
500293,RUA SALVADOR DE OLIVEIRA LEME - ENTRADA CIDADE,-23.591393,-48.034693,URBANO,OUTDOOR
500294,R VIRGILIO DE REZENDE - ESC. ADHERBAL - LD - SEMAF,-23.587709, -48.046343,URBANO,OUTDOOR
500295,RUA CEL AFONSO - ESC. ADHERBAL - SEMÁFORO,-23.587641,-48.046235,URBANO,OUTDOOR
500297,AV. MARGINAL - CENTRAL PARK - LE - FACE C.PARK,-23.597321,-48.043114,URBANO,OUTDOOR
500298,AV. MARGINAL - CENTRAL PARK - LE - FACE V.BARTH,-23.597321,-48.043114,URBANO,OUTDOOR
500299,AV. MARGINAL - CENTRAL PARK - LD - FACE V.BARTH,-23.596959,-48.043505,URBANO,OUTDOOR
500302,AV. 5 DE NOVEMBRO - RR EVENTOS - ENTRADA CIDADE,-23.6017502,-48.0616487,URBANO,OUTDOOR
500303,AV DOMINGOS J VIEIRA / EXPEDICION - WGB - SEMÁFORO,-23.588458,-48.040966,URBANO,OUTDOOR
500305,AV. WENCESLAU BRAZ - SEMÁFORO,-23.573640, -48.028041,URBANO,OUTDOOR
500311,R VIRGILIO DE REZENDE - ESC. ADHERBAL - LE - SEMAF,-23.587709,-48.046343,URBANO,OUTDOOR
500323,AV. JOSÉ DE ALMEIDA CARVALHO - PLACA I,-23.5796303,-48.0297362,URBANO,OUTDOOR
500324,AV. JOSÉ DE ALMEIDA CARVALHO PLACA II,-23.5798904,-48.030343,URBANO,OUTDOOR
500390,RUA DR COUTINHO / JOSÉ HERMINIO DE MORAES - SEMÁF,-23.5781885,-48.034333,URBANO,OUTDOOR
500391,RUA JOSÉ HERMINIO DE MORAES / DR COUTINHO - SEMÁF,-23.578016,-48.034460,URBANO,OUTDOOR
500506,R VENÂNCIO AYRES - AUTO POSTO SATURNO BR - CENTRO,-23.591000, -48.049295,URBANO,OUTDOOR
500511,ACESSO ITAPETININGA SHOPPING,-23.578954, -48.038288,URBANO,OUTDOOR
500512,RUA VIRGILIO DE REZENDE - HOTEL IPORÃ - LE,-23.585022,-48.034416,URBANO,OUTDOOR
500515,SP 270 - ROD. RAPOSO TAVARES - KM 161 - FACE SP,-23.596648,-48.006467,RODOVIA,OUTDOOR
500516,RUA FERNANDO PRESTES - PAD BARÃO - SEMAFORO,-23.586113,-48.046671,URBANO,OUTDOOR
500639,AV. PEIXOTO GOMIDE X RUA SILVA JARDIM- CENTRO,-23.587720,-48.047975,URBANO,OUTDOOR
500640,AV. SILVA JARDIM X AV. PEIXOTO GOMIDE - CENTRO,-23.587810,-48.048089,URBANO,OUTDOOR
500641,AV.WENCESLAU BRAZ- SEMAFORO SENTIDO CENTRO,-23.573599, -48.027997,URBANO,OUTDOOR
500642,"RODOVIA RAPOSO TAVARES , KM 168 KAIKAN 1",-23.615970,-48.075256,RODOVIA,OUTDOOR
500643,"RODOVIA RAPOSO TAVARES , KM 168 KAIKAN 2",-23.615970,-48.075256,RODOVIA,OUTDOOR
500721,RODOVIA RAPOSO TAVARES KM 160 - I - ANTES DA MGA,-23.596635, -48.006512,RODOVIA,OUTDOOR
500722,RODOVIA RAPOSO TAVARES KM 160- II - ANTES DA MGA,-23.596748, -48.007712,RODOVIA,OUTDOOR
500832,AV. SALVADOR DE OLIVEIRA LEME (SARUTAYA) - ROTATÓRIA,-23.5963542,-48.031302,URBANO,OUTDOOR
500833,RUA SALVADOR IANACONI - SPANI I - VALE SAN FERNANDO,-23.5975634,-48.0292121,URBANO,OUTDOOR
500834,RUA SALVADOR IANACONI - SPANI II - VALE SAN FERNANDO,-23.5975634,-48.0292121,URBANO,OUTDOOR
500852,RUA JÚLIO PRESTES X RUA CAMPOS SALLES I (QUADRO DUPLO),-23.5893775,-48.0523042,URBANO,OUTDOOR
500853,RUA JÚLIO PRESTES X RUA CAMPOS SALLES II (QUADRO DUPLO),-23.5893775,-48.0523042,URBANO,OUTDOOR
500854,RUA JÚLIO PRESTES X RUA CAMPOS SALLES (QUADRO SIMPLES),-23.5893775,-48.0523042,URBANO,OUTDOOR
500521,VIA EXPRESSA - ITU X SALTO - PLACA I,-23.254246,-47.304681,URBANO,OUTDOOR
500522,VIA EXPRESSA - ITU X SALTO - PLACA II,-23.2545874,-47.304802,URBANO,OUTDOOR
500523,VIA EXPRESSA - ITU X SALTO - PLACA III,-23.254246,-47.304681,URBANO,OUTDOOR
500524,VIA EXPRESSA - ITU X SALTO - PLACA IV,-23.254246,-47.304681,URBANO,OUTDOOR
500526,RUA SANTANA / AV. GALILEU BICUDO QUADRO 1,-23.264154,-47.303924,URBANO,OUTDOOR
500529,AV. GALILEU BICUDO - SENTIDO BAIRRO - PLACA 01,-23.273769,-47.302652,URBANO,OUTDOOR
500530,AV. GALILEU BICUDO - SENTIDO BAIRRO-  PLACA 02,-23.273769,-47.302652,URBANO,OUTDOOR
500531,AV.OCTAV. PEREIRA MENDES-X RUA SANTA RITA,-23.256850,-47.304434,URBANO,OUTDOOR
500532,AV.DR OCTAVIANO PEREIRA MENDES-FTE TAPERA PLACA 2,-23.256661,-47.304252,URBANO,OUTDOOR
500534,RUA MADRE MARIA BASÍLIA - PLACA 01,-23.274877,-47.292601,URBANO,OUTDOOR
500535,RUA MADRE MARIA BASÍLIA - PLACA 02,-23.258370,-47.302130,URBANO,OUTDOOR
500600,AV. FRANCISCO ERNESTO FÁVERO  - FRENTE JEEP,-23.285220, -47.291692,URBANO,OUTDOOR
500601,AV. TIRADENTES X ESCOLA AGRICOLA PLACA 02,-23.287721,-47.292868,URBANO,OUTDOOR
500603,"AV. BARATA RIBEIRO,410- ROT.FACE KIA MOTORS- I",-23.285278, -47.290894,URBANO,OUTDOOR
500604,"AV.BARATA RIBEIRO,410- SENTIDO CENTRO- PLACA 02",-23.2850613,-47.2908541,URBANO,OUTDOOR
500605,AV.DR.OCTAVIANO PEREIRA MENDES-FTE TAPERA PLACA 1,-23.256661,-47.304252,URBANO,OUTDOOR
500606,"AV. ARQUITETO MARCIO JOÃO DE ARRUDA,260B - ITU NOVO CENTRO",-23.276437,-47.287766,URBANO,OUTDOOR
500607,RUA PAULO EDUARDO XAVIER DE TOLEDO - B. SAO LUÍS,-23.269475, -47.279052,URBANO,OUTDOOR
500609,"RUA MARECHAL DEODORO,390- CENTRO",-23.260143, -47.298807,URBANO,OUTDOOR
500622,"AV. ERMELINDO MAFFEI,1164- FRENTE ITU SHOPPING I",-23.265690,-47.281283,URBANO,OUTDOOR
500623,"AV.ERMELINDO MAFFEI,1164 - FRENTE ITU SHOPPING II",-23.263904,-47.284368,URBANO,OUTDOOR
500624,"AV.ERMELINDO MAFFEI,1164 - FRENTE ITU SHOPPING III",-23.265606, -47.281441,URBANO,OUTDOOR
500629,AV. ERMELINDO MAFFEI (ROTATÓRIA) I,-23.264095,-47.284113,URBANO,OUTDOOR
500630,AV. ERMELINDO MAFFEI (ROTATÓRIA) II,-23.264024,-47.284234,URBANO,OUTDOOR
500631,AV. ERMELINDO MAFFEI (ROTATÓRIA) III,-23.263934,-47.284348,URBANO,OUTDOOR
500632,AV.ERMELINDO MAFFEI (ROTATÓRIA) IV,-23.256661,-47.304252,URBANO,OUTDOOR
500633,AV.ERMELINDO MAFFEI (ROTATÓRIA) V,-23.263865,-47.284389,URBANO,OUTDOOR
500679,RUA SANTANA / AV. GALILEU BICUDO QUADRO 2,-23.264139,-47.303953,URBANO,OUTDOOR
500680,AV. GALILEU BICUDO - SENTIDO BAIRRO-  PLACA 03,-23.273769,-47.302652,URBANO,OUTDOOR
500783,"AV. EUGEN WISSMANN, ALTURA DO N° 261- I- SÃO LUÍS",-23.2736572,-47.2804808,URBANO,OUTDOOR
500784,"AV. EUGEN WISSMANN, ALTURA DO N° 261- II- SÃO LUÍS",-23.2736572,-47.2804808,URBANO,OUTDOOR
500835,"RODOVIA ARCHIMEDES LAMMOGLIA, KM 29+500 LD - I",-23.2594519,-47.3227596,URBANO,OUTDOOR
500836,"RODOVIA ARCHIMEDES LAMMOGLIA, KM 29+500 LD II",-23.2594519,-47.3227596,URBANO,OUTDOOR
500654,AV. MONSENHOR SECLER X OTONIE SAMPAIO-BAIRRO,-23.213012, -47.508005,URBANO,OUTDOOR
500655,AV. MONSENHOR SECLER X OTONIE SAMPAIO- CENTRO,-23.213012, -47.507886,URBANO,OUTDOOR
500541,RODOVIA HILARIO FERRARI- PROX. ROTATÓRIA AV. GASPER LIBERO X AV. MARECHAL RONDON - SENTIDO CENTRO I,-23.2196463,-47.2611644,URBANO,OUTDOOR
500542,"RODOVIA HILÁRIO FERRARI, PROX. ROTATÓRIA AV. GASPER LIBERO X AV. MARECHAL RONDON - SENTIDO CENTRO II",-23.2196463,-47.2611644,URBANO,OUTDOOR
500619,"AV.DOS TRABALHADORES,200-QUADRA LOTE 29- VILA NOVA",-23.205449, -47.286766,URBANO,OUTDOOR
500620,"AV. MARECHAL RONDON,300- LD VIADUTO FERROVIÁRIO I",-23.212526,-47.287022,URBANO,OUTDOOR
500621,"AV. CÁSPER LIBERO,1973- JARDIM SANTA CRUZ",-23.217998,-47.264543,URBANO,OUTDOOR
500634,"RUA DAS BROMÉLIAS, 80 - PORTO SEGURO",-23.1860948,-47.279389,URBANO,OUTDOOR
500739,"AVJOSÉ MARIA DE OLIVEIRA,203- V.NORMAI-SENT.CENTRO",-23.185285, -47.312057,URBANO,OUTDOOR
500740,"AVJOSÉ MARIA DE OLIVEIRA,203-V.NORMAII-SENT.CENTRO",-23.185325,-47.312081,URBANO,OUTDOOR
500763,"AV. MARECHAL RONDON,300- LD VIADUTO FERROVIÁRIO II",-23.212498,-47.286981,URBANO,OUTDOOR
500816,"AV. JOSÉ MARIA DE OLIVEIRA,203-  V.NORMA- I -SENT. BAIRRO ",-23.1851315,-47.3117895,URBANO,OUTDOOR
500817,"AV. JOSÉ MARIA DE OLIVEIRA,203-  V.NORMA- II -SENT. BAIRRO ",-23.1851315,-47.3117895,URBANO,OUTDOOR
500818,RUA PRESIDENTE WENCESLAU X  RUA 24 DE OUTUBRO- PLACA I,-23.198433,-47.294202,URBANO,OUTDOOR
500819,RUA PRESIDENTE WENCESLAU X  RUA 24 DE OUTUBRO- PLACA II,-23.198433,-47.294202,URBANO,OUTDOOR
500822,"RUA MARECHAL DEODORO, Nº 1750 X RUA REGENTE FEIJÓ- JD. BRASIL- I",-23.1979016,-47.2826148,URBANO,OUTDOOR
500823,"RUA MARECHAL DEODORO, Nº 1750 X RUA REGENTE FEIJÓ- JD. BRASIL- II",-23.1979016,-47.2826148,URBANO,OUTDOOR
500824,RODOVIA DA CONVENÇÃO- ALTURA DO Nº 760- LADO TENDA ATACADO- SENTIDO SALTO,-23.2179748,-47.2990546,RODOVIA,OUTDOOR
500825,RODOVIA DA CONVENÇÃO- ALTURA DO Nº 760- LADO TENDA ATACADO- SENTIDO ITU,-23.2179748,-47.2990546,RODOVIA,OUTDOOR
500837,"AV. JOSÉ MARIA DE OLIVEIRA,203-  V.NORMA- III - SENT. BAIRRO ",-23.1851315,-47.3117895,URBANO,OUTDOOR
500517,RUA SIQUEIRA CAMPOS - ENTRADA DA CIDADE,-23.871925,-47.996316,URBANO,OUTDOOR
500334,"AV. SÃO PAULO, N° 3333- SENTIDO CENTRO",-23.489160,-47.422272,URBANO,OUTDOOR
500335,"AV. SÃO PAULO, N° 3333- SENTIDO NATIVAS GRILL CHURRASCARIA",-23.489160,-47.422272,URBANO,OUTDOOR
500342,"AV. GENERAL OSÓRIO, N° 1730 - TRUJILO ",-23.487837,-47.478368,URBANO,OUTDOOR
500344,AV. DOMINGOS JULIO - LADO 731 PISTA DE CAMINHADA PLACA I,-23.5248195,-47.4672248,URBANO,OUTDOOR
500345,AV. DOMINGOS JULIO - LADO 731 PISTA DE CAMINHADA PLACA II,-23.5248195,-47.4672248,URBANO,OUTDOOR
500681,AV.PEREIRA INACIO X RUA JANUARIO BARBOSA - I,-23.508387, -47.456012,URBANO,OUTDOOR
500682,RUA JOUBERT WEY ESQUINA COM PAULISTÃO RODOVIÁRIA,-23.507194,-47.456564,URBANO,OUTDOOR
500683,RUA PANDIÁ CALÓGERAS X RODOVIÁRIA/PAULISTÃO- II,-23.507191,-47.546718,URBANO,OUTDOOR
500686,JOSÉ MARIA HANNIKEL- CAMPOLIM- PLACA 1,-23.520551,-47.464085,URBANO,OUTDOOR
500687,JOSÉ MARIA HANNIKEL- CAMPOLIM- PLACA 2,-23.525203,-47.463328,URBANO,OUTDOOR
500688,"AVENIDA ANTONIO CARLOS COMITRE, 444- PQ. CAMPOLIM - 1",-23.519520,-47.464694,URBANO,OUTDOOR
500689,"AVENIDA ANTONIO CARLOS COMITRE, 444- PQ. CAMPOLIM - 2",-23.519448,-47.464665,URBANO,OUTDOOR
500690,"AV. EUGÊNIO SALERNO, 204 - JULIO PRESTES -I",-23.500327, -47.468447,URBANO,OUTDOOR
500693,"AV. PEREIRA INÁCIO, 2280 - I",-23.525273,-47.450633,URBANO,OUTDOOR
500695,"AV. PEREIRA INÁCIO, 2280- II",-23.525955,-47.450254,URBANO,OUTDOOR
500697,AV. MARIO CAMPOLIM - LADO JUST INTERCAMBIOS,-23.525203,-47.463328,URBANO,OUTDOOR
500698,AV.AFONSO VERGUEIRO- PROX.PADARIA REAL-SENT.CENTRO,"-23.501823,",-47.478891,URBANO,OUTDOOR
500699,AV.AFONSO VERGUEIRO- PROX.PAD. REAL- SENT.BAIRRO I,-23.501876,-47.479008,URBANO,OUTDOOR
500700,AV.AFONSO VERGUEIRO-PROX.PAD. REAL- SENT.BAIRRO II,-23.501876,-47.479084,URBANO,OUTDOOR
500701,AV.ARMANDO PANNUNZIO - FTE VALEC/RENAULT/NISSAN I,-23.519770,-47.490468,URBANO,OUTDOOR
500702,AV.ARMANDO PANNUNZIO - FTE VALEC/RENAULT/NISSAN II,-23.519831,-47.490495,URBANO,OUTDOOR
500703,AV.ARMANDO PANNUNZIO -FTE VALEC/RENAULT/NISSAN III,-23.519900, -47.490516,URBANO,OUTDOOR
500704,AV.ARMANDO PANNUNZIO- FTE VALEC/RENAULT/NISSAN IV,-23.519966,-47.490537,URBANO,OUTDOOR
500711,"AV.IPANEMA, N°1760-  SENT. CENTRO",-23.478543,-47.483534,URBANO,OUTDOOR
500712,"AV.IPANEMA, N°1760-  SENT. BAIRRO",-23.478543,-47.483534,URBANO,OUTDOOR
500713,"AV.INDEPENDENCIA,ALTURA N° 2400-SENT. EDEN - I",-23.448772,-47.417886,URBANO,OUTDOOR
500714,"AV.INDEPENDENCIA,ALTURA N° 2400 - SENT. EDEN -II",-23.448772,-47.417886,URBANO,OUTDOOR
500715,"AV.INDEPENDENCIA,ALTURA N° 2400- SENT. CENTRO - I",-23.447279,-47.417687,URBANO,OUTDOOR
500716,"AV.INDEPENDENCIA, ALTURA N° 2400- SENT. CENTRO- II",-23.447279,-47.417687,URBANO,OUTDOOR
500727,"AV.J.J.LACERDA,ALT.N°1100- FRENTE EXTRA SUPERMERCADOS- SENT.BAIRRO I",-23.481661,-47.459058,URBANO,OUTDOOR
500728,"AV.J.J.LACERDA,ALT.N°1100- FRENTE EXTRA SUPERMERCADOS - SENT.CENTRO II",-23.481638,-47.459093,URBANO,OUTDOOR
500729,"RUA HORÁCIO CENCI, N° 67 - PARQUE CAMPOLIM",-23.530861,-47.466115,URBANO,OUTDOOR
500741,AV.ANTONIO C. COMITRE -LD PADARIA REAL I CAMPOLIM,-23.520468,-47.464459,URBANO,OUTDOOR
500742,AV.ANTONIO C.COMITRE -LD PADARIA REAL- II CAMPOLIM,-23.520598,-47.464476,URBANO,OUTDOOR
500743,"AV.AFONSO VERGUEIRO,3131- FTE- MAGGI/JAGUAR/LAND I",-23.501963,-47.479387,URBANO,OUTDOOR
500744,"AV.AFONSO VERGUEIRO,3131- FTE MAGGI/JAGUAR/LAND II",-23.502005,-47.479327,URBANO,OUTDOOR
500745,AV.PEREIRA INÁCIO X RUA JANUÁRIO BARBOSA II,-23.508387,-47.456012,URBANO,OUTDOOR
500746,AV.PEREIRA INÁCIO X RUA JANUÁRIO BARBOSA III,-23.508387,-47.456012,URBANO,OUTDOOR
500747,AV.IZORAIDA M.PERES170- IGUATEMI I SENTIDO CENTRO,-23.530911,-47.465289,URBANO,OUTDOOR
500748,AV.IZORAIDA M.PERES170- IGUATEMI II SENTIDO CENTRO,-23.530911,-47.465289,URBANO,OUTDOOR
500749,AV.IZORAIDA M.PERES170-IGUATEMI III- SENT.SHOPPING,-23.530911,-47.465289,URBANO,OUTDOOR
500754,"AV.JUSCELINO KUBITSCHEK , 847 - JD. VERGUEIRO I ",-23.506114, -47.460217,URBANO,OUTDOOR
500755,"AV.JUSCELINO KUBITSCHEK , 847 - JD. VERGUEIRO II",-23.506042,-47.460401,URBANO,OUTDOOR
500758,"AV.DOM AGUIRRE,ALÇA CASTELINHO- I- SENTIDO BAIRRO ",-23.4812337,-47.4391325,URBANO,OUTDOOR
500759,"AV.DOM AGUIRRE,ALÇA CASTELINHO- II SENTIDO BAIRRO ",-23.4812337,-47.4391325,URBANO,OUTDOOR
500760,"AV.DOM AGUIRRE,ALÇA CASTELINHO- I- SENTIDO CENTRO ",-23.480739,-47.439918,URBANO,OUTDOOR
500761,"AV.DOM AGUIRRE,ALÇA CASTELINHO- II SENTIDO CENTRO ",-23.480615,-47.439908,URBANO,OUTDOOR
500762,"AV.DOM AGUIRRE,ALÇA CASTELINHO-III SENTIDO CENTRO ",-23.480609,-47.439758,URBANO,OUTDOOR
500769,"AV.JUVENAL DE CAMPOS,SENTIDO DOM AGUIRRE- FRENTE HIGA ATACADO - PLACA I",-23.512472,-47.451656,URBANO,OUTDOOR
500770,"AV.JUVENAL DE CAMPOS, SENTIDO DOM AGUIRRE- FRENTE HIGA ATACADO - PLACA II",-23.512472,-47.451656,URBANO,OUTDOOR
500772,AV.IPANEMA ESQUINA C/RUA OLAVO MARIANO,-23.453269,-47.508817,URBANO,OUTDOOR
500773,AV. JEROME CASE - SENTIDO DISTRITO INDUSTRIAL,-23.434053,-47.393990,URBANO,OUTDOOR
500774,AV. JEROME CASE - SENTIDO CASTELINHO,-23.433982,-47.393945,URBANO,OUTDOOR
500775,AV.VICTOR ANDREWS-PORT.II COND.IBITI-SENT.CENTRO,-23.438376,-47.436517,URBANO,OUTDOOR
500776,AV.VICTOR ANDREWS-PORT.II COND.IBITI-SENT.BAIRRO,-23.438376,-47.436517,URBANO,OUTDOOR
500777,AV. FERNANDO STECCA - SENTIDO BAIRRO,-23.456147,-47.439624,URBANO,OUTDOOR
500778,AV. FERNANDO STECCA - SENTIDO CENTRO,-23.456147,-47.439624,URBANO,OUTDOOR
500792,RUA HERMELINO MATARAZZO CRUZ. C/ AV.J.J LACERDA -I,-23.4851328,-47.4677315,URBANO,OUTDOOR
500793,RUA HERMELINO MATARAZZO CRUZ.C/ AV.J.J LACERDA- II,-23.4851328,-47.4677315,URBANO,OUTDOOR
500794,"AV.J.J.LACERDA,ALT.N°1100- EXTRA SUPERMERCADOS - SENT.BAIRRO II",-23.481638,-47.459093,URBANO,OUTDOOR
500795,"AV.J.J.LACERDA,ALT.N°1101- EXTRA SUPERMERCADOS - SENT.CENTRO I",-23.481638,-47.459093,URBANO,OUTDOOR
500799,"AV.NOGUEIRA PADILHA,770- SENTIDO BOA I",-23.5052214,-47.4453109,URBANO,OUTDOOR
500800,"AV.NOGUEIRA PADILHA,770- SENTIDO BOA II",-23.5052214,-47.4453109,URBANO,OUTDOOR
500801,ROD.RAPOSO TAVARES ALÇA TREVO ACESSO -PANNUNZIO I, -23.533305,-47.4852262,RODOVIA,OUTDOOR
500802,ROD.RAPOSO TAVARES ALÇA TREVO ACESSO -PANNUNZIO II, -23.533305,-47.4852262,RODOVIA,OUTDOOR
500803,"AV. COMENDADOR PEREIRA INÁCIO , 1045 - FT CENTRO DE MEDICINA - SENT. IGUATEMI/VOTORANTIM - I",-23.5142642,-47.4550793,URBANO,OUTDOOR
500804,"AV. COMENDADOR PEREIRA INÁCIO , 1045 - FT CENTRO DE MEDICINA - SENT. IGUATEMI/VOTORANTIM - II",-23.5142642,-47.4550793,URBANO,OUTDOOR
500809,"AV. GENERAL CARNEIRO, 811 - FRENTE IGREJA SÃO JOSÉ - SENTIDO TAUSTE- LOJA 3/CONFIANÇA ",-23.5043149,-47.4761986,URBANO,OUTDOOR
500810,RUA PADRE MADUREIRA LADO COOP - DOM AGUIRRE  - PLACA I,-23.4951221,-47.441899,URBANO,OUTDOOR
500811,RUA PADRE MADUREIRA LADO COOP - DOM AGUIRRE  - PLACA II,-23.4951221,-47.441899,URBANO,OUTDOOR
500812,"AV. JUVENAL DE CAMPOS, ALTURA Nº 180- CROSSFIT GOMIXEL - SENTIDO CENTRO I",-23.5097232,-47.452626,URBANO,OUTDOOR
500813,"AV. JUVENAL DE CAMPOS, ALTURA Nº 180- CROSSFIT GOMIXEL - SENTIDO CENTRO II",-23.5097232,-47.452626,URBANO,OUTDOOR
500820,RUA HUMBERTO DE CAMPOS- FRENTE INSTITUTO I,-23.5004514,-47.4820365,URBANO,OUTDOOR
500821,RUA HUMBERTO DE CAMPOS- FRENTE INSTITUTO II,-23.5008078,-47.4820429,URBANO,OUTDOOR
500838,RUA PANDIÁ CALÓGENAS ESQUINA COM AV. PEREIRA INÁCIO - POSTO SHELL I,-23.5069779,-47.4558072,URBANO,OUTDOOR
500839,RUA PANDIÁ CALÓGENAS ESQUINA COM AV. PEREIRA INÁCIO - POSTO SHELL II,-23.5069779,-47.4558072,URBANO,OUTDOOR
500840,AV. ADOLPHO MASSAGLIA - SENTIDO RESIDENCIAL GIVERNY - FACE SECRETARIA DA FAZENDA,-23.5474833,-47.4718304,URBANO,OUTDOOR
500841,AV. ADOLPHO MASSAGLIA - SENTIDO SECRETARIA DA FAZENDA - FACE RESIDENCIAL GIVERNY,-23.5474833,-47.4718304,URBANO,OUTDOOR
500842,"RUA VISCONDE DO RIO BRANCO, Nº 1087 - PLACA I - SENTIDO AV. WASHINGTON LUIS",-23.5137293,-47.4748678,URBANO,OUTDOOR
500843,"RUA VISCONDE DO RIO BRANCO, Nº 1087 - PLACA II - SENTIDO AV. WASHINGTON LUIS",-23.5137293,-47.4748678,URBANO,OUTDOOR
500844,RUA TOCANTINS X RUA GARCIA REDONDO - SENTIDO AV. GAL. CARNEIRO,"-23.513598,",47.4740617,URBANO,OUTDOOR
500845,AV.RIUSAKO KANIZAWA Nº 485 X RUA ADEMIR PEREIRA - PLACA I,-23.4668076,-47.501197,URBANO,OUTDOOR
500846,AV.RIUSAKO KANIZAWA Nº 485 X RUA ADEMIR PEREIRA - PLACA II,-23.4668076,-47.501197,URBANO,OUTDOOR
500160,SP 127 - ROD. ROMANO SCHINCARIOL - S. ITAPETININGA,-23.357204, -47.881063,RODOVIA,OUTDOOR
500161,SP 127 - ROD. ROMANO SCHINCARIOL - S. TATUI,-23.357204, -47.881063,RODOVIA,OUTDOOR
500162,RUA ANGELO POLES - LE,-23.335401,-47.855898,URBANO,OUTDOOR
500163,RUA ANGELO POLES - LD,-23.335401,-47.855898,URBANO,OUTDOOR
500164,AV. POMPEU REALLI - LE 2,-23.337453,-47.857117,URBANO,OUTDOOR
500169,RUA JOSÉ BONIFÁCIO - IGREJA MATRIZ - LE,-23.349575,-47.848919,URBANO,OUTDOOR
500170,RUA JOSÉ BONIFÁCIO - IGREJA MATRIZ - LD,-23.349575,-47.848919,URBANO,OUTDOOR
500175,ROD. LAURINDO MINHOTO - LD 2,-23.350944,-47.833395,RODOVIA,OUTDOOR
500176,ROD. LAURINDO MINHOTO - LD 3,-23.350920,-47.833369,RODOVIA,OUTDOOR
500184,RUA XI DE AGOSTO - LD 1,-23.354771,-47.861272,URBANO,OUTDOOR
500185,RUA XI DE AGOSTO - CHURRASC COSTELÃO,-23.358775,-47.878533,URBANO,OUTDOOR
500312,RUA XI DE AGOSTO - LD 2,-23.354771,-47.861272,URBANO,OUTDOOR
500382,AV. POMPEU REALLI - LD 1,-23.337210, -47.858801,URBANO,OUTDOOR
500519,AV. POMPEU REALLI - LD 2,-23.337738, -47.856948,URBANO,OUTDOOR
500520,AV. POMPEU REALLI - LE 1,-23.337415, -47.857226,URBANO,OUTDOOR
500828,"RUA SÃO BENTO, 415- CONSERVATÓRIO - ESQUINA FRANCISCO PEREIRA",-23.349034,-47.8436998,URBANO,OUTDOOR
500829,"RUA SÃO BENTO, 808- CONSERVATÓRIO - ESQUINA CÔNEGO JOÃO CLÍMACO ",-23.351633,-47.841778,URBANO,OUTDOOR
500830,AVENIDA CORONEL FIRMO VIEIRA DE CAMARGO- MC DONALDS - I,-23.34792,-47.8436223,URBANO,OUTDOOR
500676,"RUA RAFAEL DE CAMPOS,250- CENTRO- PRAÇA DA MATRIZ ",-23.104334,-47.711428,URBANO,OUTDOOR
500796,RUA FRANCISCO DE TOLEDO- CONCESSIONARIA VOLKSWAGEN MAGGI,-23.1174642,-47.7110371,URBANO,OUTDOOR
500339,"AV. GISELE CONSTANTINO, 501- SENTIDO SOROCABA",-23.5488048,-47.4663143,URBANO,OUTDOOR
500684,"AV. GISELE CONSTANTINO,788-PQ. BELA VISTA- PLACA 1",-23.545751,-47.467057,URBANO,OUTDOOR
500685,"AV. GISELE CONSTANTINO,788-PQ. BELA VISTA- PLACA 2",-23.545784,-47.467068,URBANO,OUTDOOR
500720,"AV. MATHEUS CONEGERO, 200- SENT. IGUATEMI",-23.542468, -47.462993,URBANO,OUTDOOR
600635,"RUA HORACIO CENCI, Nº 40- LD - SENTIDO IGUATEMI - PLACA I ",-23.530741,-47.4661601,URBANO,OUTDOOR
600636,"RUA HORACIO CENCI, Nº 40- LD - SENTIDO IGUATEMI - PLACA II",-23.530741,-47.4661601,URBANO,OUTDOOR
600659,AV. ANTONIO BARDELA - SENTIDO SOROCABA PARK HOTEL - FACE AUTOMEC PLACA I,-23.4739789,-47.4308584,URBANO,OUTDOOR
600660,AV. ANTONIO BARDELA - SENTIDO SOROCABA PARK HOTEL - FACE AUTOMEC PLACA II,-23.4739789,-47.4308584,URBANO,OUTDOOR
600661,AV. ANTONIO BARDELA - SENTIDO AUTOMEC - FACE PARA SOROCABA PARK HOTEL - PLACA I,-23.4740813,-47.4311381,URBANO,OUTDOOR
600662,AV. ANTONIO BARDELA - SENTIDO AUTOMEC - FACE PARA SOROCABA PARK HOTEL - PLACA II,-23.4740813,-47.4311381,URBANO,OUTDOOR
600663,"AV.ENG.CARLOS REINALDO MENDES,2545- FTE PAD. REAL I     ",-23.4814932,-47.421598,URBANO,OUTDOOR
600664,"AV.ENG.CARLOS REINALDO MENDES,2545- FTE PAD. REAL II",-23.4814932,-47.421598,URBANO,OUTDOOR
700008,ROD. CASTELLO BRANCO KM 238+400M,-22.9733634,-48.7899544,RODOVIA,FRONTLIGHT 
700009,ROD. PRESIDENTE DUTRA KM 102+200M - LE - SENTIDO SÃO PAULO,-22.9953997,-45.4906072,RODOVIA,FRONTLIGHT 
700010,ROD. DOS TAMOIOS KM 25+750M LD - SENTIDO CARAGUATATUBA,-23.3362326,-45.7133919,RODOVIA,FRONTLIGHT 
700011,ROD. AYRTON SENNA KM 38+590M LE - SENTIDO RIO DE JANEIRO,-23.4464212,-46.3213902,RODOVIA,FRONTLIGHT 
700012,ROD. DOM PEDRO I KM 18+400M LE - SENTIDO CAMPINAS,-23.2418342,-46.1207609,RODOVIA,FRONTLIGHT 
700014,RODOVIA HAMILTON VIEIRA MENDES KM 34 - TREVO SILVEIRAS X CRUZEIRO ,-22.6512871,-44.9573423,RODOVIA,FRONTLIGHT 
700015,ROD. DOS BANDEIRANTES KM 79+500M,-23.0458506,-47.0580476,RODOVIA,FRONTLIGHT 
700016,SP 330 RODOVIA ANHANGUERA KM 296,-21.306536,-47.739581,RODOVIA,FRONTLIGHT 
700017,SP 310 RODOVIA WASHINGTON LUÍS - KM 427+950M,-22.216342,-49.8399179,RODOVIA,FRONTLIGHT 
700018,"ROD. PADRE MANOEL DA NÓBREGA, KM 282 - SENTIDO SÃO PAULO",-23.9695569,-46.4737505,RODOVIA,FRONTLIGHT 
700019,ROD. FERNÃO DIAS KM 53+500M,-23.2536553,-46.5945835,RODOVIA,FRONTLIGHT 
700020,ROD. CÂNDIDO PORTINARI KM 390,-20.5937141,-47.4406034,RODOVIA,FRONTLIGHT 
700021,ROD. GOVERNADOR ADHEMAR DE BARROS KM 149,-22.5466055,-46.9988542,RODOVIA,FRONTLIGHT 
700022,ROD. MARECHAL RONDON KM 527,-23.1819129,-45.728096,RODOVIA,FRONTLIGHT 
700023,ROD. COMANDANTE JOÃO RIBEIRO DE BARROS KM 527+400,-21.9459633,-50.5216416,RODOVIA,FRONTLIGHT 
800001,RICAN AV. DR. AFONSO VERGUEIRO - EM FRENTE À ESTAÇÃO FERROVIÁRIA - TIPO DE ABRIGO (SIMPLES),-23.4964588,-47.4547892,URBANO,ABRIGO
800002,MUPI AV. DR. AFONSO VERGUEIRO - EM FRENTE À ESTAÇÃO FERROVIÁRIA,-23.4964588,-47.4547892,URBANO,MUPI
800003,VIDRO I AV. DR. AFONSO VERGUEIRO - EM FRENTE AO SHOPPING SOROCABA - TIPO DE ABRIGO (DUPLO),-23.4969338,-47.4669684,URBANO,ABRIGO
800004,VIDRO II AV. DR. AFONSO VERGUEIRO - EM FRENTE AO SHOPPING SOROCABA - TIPO DE ABRIGO (DUPLO),-23.4969338,-47.4669684,URBANO,ABRIGO
800005,MUPI AV. DR. AFONSO VERGUEIRO - EM FRENTE AO SHOPPING SOROCABA,-23.4969338,-47.4669684,URBANO,MUPI
800006,AV. DR. AFONSO VERGUEIRO - DEFRONTE AO PÁTIO CIANÊ - TIPO DE ABRIGO (DUPLO),-23.4953264,-47.4608732,URBANO,ABRIGO
800007,AV. DR. AFONSO VERGUEIRO - DEFRONTE AO PÁTIO CIANÊ - TIPO DE ABRIGO (DUPLO),-23.4953264,-47.4608732,URBANO,ABRIGO
800008,RICAN I AV. DR. AFONSO VERGUEIRO - FRENTE AO TERMINAL SANTO ANTONIO - TIPO DE ABRIGO (DUPLO),-23.4954136,-47.4599472,URBANO,ABRIGO
800009,RICAN II AV. DR. AFONSO VERGUEIRO - FRENTE AO TERMINAL SANTO ANTONIO - TIPO DE ABRIGO (DUPLO),-23.4954136,-47.4599472,URBANO,ABRIGO
800010,MUPI AV. DR. AFONSO VERGUEIRO - FRENTE AO TERMINAL SANTO ANTONIO,-23.4954136,-47.4599472,URBANO,MUPI
800011,RICAN JUVENAL DE CAMPOS - EM FRENTE HIGA ATACADO - TIPO DE ABRIGO (SIMPLES),-23.513236,-47.4513407,URBANO,ABRIGO
800012,MUPI I JUVENAL DE CAMPOS - EM FRENTE HIGA ATACADO,-23.513236,-47.4513407,URBANO,MUPI
800013,MUPI II JUVENAL DE CAMPOS - EM FRENTE HIGA ATACADO,-23.513236,-47.4513407,URBANO,MUPI
800014,AV. BARÃO DE TATUÍ - AO LADO DO Nº 434 - TIPO DE ABRIGO (SIMPLES),-23.5073459,-47.4625412,URBANO,ABRIGO
800015,AV. BARÃO DE TATUÍ - EM FRENTE AO Nº 1078 - DEFRONTE A IGREJA J. CAMARGO - TIPO DE ABRIGO (SIMPLES),-23.5126046,-47.4641012,URBANO,ABRIGO
800016,MUPI AV. BARÃO DE TATUÍ - EM FRENTE AO Nº 1078 - DEFRONTE A IGREJA J. CAMARGO,-23.5126046,-47.4641012,URBANO,MUPI
800017,"RICAN AV. BARÃO DE TATUÍ - EM FRENTE AO Nº 859, BXC - TIPO DE ABRIGO (SIMPLES)",-23.5106495,-47.4627325,URBANO,ABRIGO
800018,VIDRO AV. BARÃO DE TATUÍ - EM FRENTE AO GPACI - TIPO DE ABRIGO (SIMPLES),-23.513753,-47.4648891,URBANO,ABRIGO
800019,MUPI I AV. BARÃO DE TATUÍ - EM FRENTE AO GPACI,-23.513753,-47.4648891,URBANO,MUPI
800020,MUPI II AV. BARÃO DE TATUÍ - EM FRENTE AO GPACI,-23.513753,-47.4648891,URBANO,MUPI
800021,RICAN GARCIA REDONDO - EM FRENTE AO Nº 792 - TIPO DE ABRIGO (SIMPLES),-23.5113294,-47.4723778,URBANO,ABRIGO
800022,MUPI I GARCIA REDONDO - EM FRENTE AO Nº 792,-23.5113294,-47.4723778,URBANO,MUPI
800023,MUPI II GARCIA REDONDO - EM FRENTE AO Nº 792,-23.5113294,-47.4723778,URBANO,MUPI
800024,RICAN RUA TOCANTINS - EM FRENTE AO Nº 825 - TIPO DE ABRIGO (SIMPLES),-23.5146216,-47.4734988,URBANO,ABRIGO
800025,MUPI RUA TOCANTINS - EM FRENTE AO Nº 825,-23.5146216,-47.4734988,URBANO,MUPI
800026,AV.DR.EUGÊNIO SALERNO - EM FRENTE A CNA - TIPO DE ABRIGO (SIMPLES),-23.5018249,-47.4683785,URBANO,ABRIGO
800027,AV.DR.EUGÊNIO SALERNO - AO LADO DO Nº 387 - TIPO DE ABRIGO (SIMPLES),-23.499415,-47.4687505,URBANO,ABRIGO
800028,VIDRO I AV.DR.EUGÊNIO SALERNO - EM FRENTE AO ESTADÃO - TIPO DE ABRIGO (DUPLO),-23.5004923,-47.4684731,URBANO,ABRIGO
800029,VIDRO II AV.DR.EUGÊNIO SALERNO - EM FRENTE AO ESTADÃO - TIPO DE ABRIGO (DUPLO),-23.5004923,-47.4684731,URBANO,ABRIGO
800030,MUPI AV.DR.EUGÊNIO SALERNO - EM FRENTE AO ESTADÃO,-23.5004923,-47.4684731,URBANO,MUPI
800031,VIDRO I AV. ENG. CARLOS REINALDO MENDES - DEFRONTE AO PAÇO MUNICIPAL - TIPO DE ABRIGO (DUPLO),-23.4778447,"-47.421804,",URBANO,ABRIGO
800032,VIDRO II AV. ENG. CARLOS REINALDO MENDES - DEFRONTE AO PAÇO MUNICIPAL - TIPO DE ABRIGO (DUPLO),-23.4778447,"-47.421804,",URBANO,ABRIGO
800033,MUPI I AV. ENG. CARLOS REINALDO MENDES - DEFRONTE AO PAÇO MUNICIPAL,-23.4778447,"-47.421804,",URBANO,MUPI
800034,MUPI II AV. ENG. CARLOS REINALDO MENDES - DEFRONTE AO PAÇO MUNICIPAL,-23.4778447,"-47.421804,",URBANO,MUPI
800035,VIDRO AV. ENG. CARLOS REINALDO MENDES - EM FRENTE AO JORNAL CRUZ DO SUL - TIPO DE ABRIGO (SIMPLES),-23.4801319,-47.4213946,URBANO,ABRIGO
800036,MUPI AV. ENG. CARLOS REINALDO MENDES - EM FRENTE AO JORNAL CRUZ DO SUL,-23.4801319,-47.4213946,URBANO,MUPI
800037,RICAN AV.WASHINGTON LUÍS - 1194 - EM FRENTE ZETA - OFFICE - TIPO DE ABRIGO (SIMPLES),-23.5165492,-47.4668763,URBANO,ABRIGO
800038,MUPI AV.WASHINGTON LUÍS - 1194 - EM FRENTE ZETA - OFFICE,-23.5165492,-47.4668763,URBANO,MUPI
800039,RICAN AV. ENGENHEIRO CARLOS REINALDO MENDES - AO LADO DA DROGA RAIA - BXC - TIPO DE ABRIGO (SIMPLES),-23.4814085,-47.4215482,URBANO,ABRIGO
800040,MUPI AV. ENGENHEIRO CARLOS REINALDO MENDES - AO LADO DA DROGA RAIA,-23.4814085,-47.4215482,URBANO,MUPI
800041,RICAN AV. ENG. CARLOS REINALDO MENDES - EM FRENTE A FATEC - TIPO DE ABRIGO (SIMPLES),-23.4884119,-47.4390385,URBANO,ABRIGO
800042,MUPI AV. ENG. CARLOS REINALDO MENDES - EM FRENTE A FATEC,-23.4884119,-47.4390385,URBANO,MUPI
800043,AV. ENG. CARLOS REINALDO MENDES - EM FRENTE AO CLUBE DE CAMPO - TIPO DE ABRIGO (SIMPLES),-23.4844178,-47.4278648,URBANO,ABRIGO
800044,RICAN AV. ENG. CARLOS REINALDO MENDES - EM FRENTE A ROTATÓRIA DO FÓRUM - TIPO DE ABRIGO (SIMPLES),-23.4737216,-47.4233596,URBANO,ABRIGO
800045,MUPI I AV. ENG. CARLOS REINALDO MENDES - EM FRENTE A ROTATÓRIA DO FÓRUM - TIPO DE ABRIGO (SIMPLES),-23.4737216,-47.4233596,URBANO,MUPI
800046,MUPI II AV. ENG. CARLOS REINALDO MENDES - EM FRENTE A ROTATÓRIA DO FÓRUM - TIPO DE ABRIGO (SIMPLES),-23.4737216,-47.4233596,URBANO,MUPI
800047,RICAN AV.JUSCELINO K. DE OLIVEIRA Nº 816 - PRAÇA SENTIDO CENTRO - TIPO DE ABRIGO (SIMPLES),-23.5048914,-47.461874,URBANO,ABRIGO
800048,MUPI AV.JUSCELINO K. DE OLIVEIRA Nº 816 - PRAÇA SENTIDO CENTRO - TIPO DE ABRIGO (SIMPLES),-23.5048914,-47.461874,URBANO,MUPI
800049,RICAN AV. DOM AGUIRRE - POSTO PETROBAS - TIPO DE ABRIGO (SIMPLES),-23.4770502,-47.4424364,URBANO,ABRIGO
800050,MUPI AV. DOM AGUIRRE - POSTO PETROBAS - TIPO DE ABRIGO (SIMPLES),-23.4770502,-47.4424364,URBANO,MUPI
800051,RICAN AV. DOM AGUIRRE - CASA TURISTA - TIPO DE ABRIGO (SIMPLES),-23.4839728,-47.4387141,URBANO,ABRIGO
800052,MUPI AV. DOM AGUIRRE - CASA TURISTA - TIPO DE ABRIGO (SIMPLES),-23.4839728,-47.4387141,URBANO,MUPI
800053,RICAN AV. DOM AGUIRRE - HONDA - TIPO DE ABRIGO (SIMPLES),-23.4884119,-47.4390385,URBANO,ABRIGO
800054,MUPI AV. DOM AGUIRRE - HONDA - TIPO DE ABRIGO (SIMPLES),-23.4884119,-47.4390385,URBANO,MUPI
800055,RICAN AV. DOM AGUIRRE - EM FRENTE A LOCALIZA Nº 2912 - TIPO DE ABRIGO (SIMPLES),-23.4869909,-47.4382698,URBANO,ABRIGO
800056,MUPI I AV. DOM AGUIRRE - EM FRENTE A LOCALIZA Nº 2912 - TIPO DE ABRIGO (SIMPLES),-23.4869909,-47.4382698,URBANO,MUPI
800057,MUPI II AV. DOM AGUIRRE - EM FRENTE A LOCALIZA Nº 2912 - TIPO DE ABRIGO (SIMPLES),-23.4869909,-47.4382698,URBANO,MUPI
800058,RICAN AV.DOM AGUIRRE - FRONTE AO Nº 1984 - TIPO DE ABRIGO (SIMPLES),-23.4839728,-47.4387141,URBANO,ABRIGO
800059,MUPI  AV.DOM AGUIRRE - FRONTE AO Nº 1984,-23.4839728,-47.4387141,URBANO,MUPI
800060,RICAN AV.DOM AGUIRRE - FRONTE AO Nº 2413 - TIPO DE ABRIGO (SIMPLES),"-23.4830755,",-47.4387219,URBANO,ABRIGO
800061,MUPI AV.DOM AGUIRRE - FRONTE AO Nº 2413,"-23.4830755,",-47.4387219,URBANO,MUPI
800062,AV. GENERAL OSÓRIO 1840 - EM FRENTE UNITEM,-23.4876225,-47.4795573,URBANO,ABRIGO
800063,VIDRO AV.PEREIRA DA SILVA - FRENTE AO CIC - TIPO DE ABRIGO (SIMPLES) I,-47.4795573,-47.448676,URBANO,ABRIGO
800064,MUPI I AV.PEREIRA DA SILVA - FRENTE AO CIC,-47.4795573,-47.448676,URBANO,MUPI
800065,MUPI II AV.PEREIRA DA SILVA - FRENTE AO CIC,-47.4795573,-47.448676,URBANO,MUPI
800066,AV.PEREIRA DA SILVA - FRONTE AO CIC - TIPO DE ABRIGO (SIMPLES),-23.4909029,-47.4483283,URBANO,ABRIGO
800067,VIDRO I AV.PEREIRA DA SILVA - FRENTE AO BATALHÃO DA POLÍCIA - TIPO DE ABRIGO (SIMPLES),-23.4870638,-47.4439388,URBANO,ABRIGO
800068,VIDRO II AV.PEREIRA DA SILVA - FRENTE AO BATALHÃO DA POLÍCIA - TIPO DE ABRIGO (SIMPLES),-23.4870638,-47.4439388,URBANO,ABRIGO
800069,MUPI I AV.PEREIRA DA SILVA - FRENTE AO BATALHÃO DA POLÍCIA,-23.4870638,-47.4439388,URBANO,MUPI
800070,MUPI II AV.PEREIRA DA SILVA - FRENTE AO BATALHÃO DA POLÍCIA,-23.4870638,-47.4439388,URBANO,MUPI
800071,RICAN I AV.WASHINGTON LUIS - Nº 2006 - PRAÇA LOS ANGELES - TIPO DE ABRIGO (DUPLO),-23.5163536,-47.4731581,URBANO,ABRIGO
800072,RICAN II AV.WASHINGTON LUIS - Nº 2006 - PRAÇA LOS ANGELES - TIPO DE ABRIGO (DUPLO),-23.5163536,-47.4731581,URBANO,ABRIGO
800073,MUPI AV.WASHINGTON LUIS - Nº 2006 - PRAÇA LOS ANGELES,-23.5163536,-47.4731581,URBANO,MUPI
800074,RICAN AV.WASHINGTON LUIS - PRAÇA NOVA YORK 1 - TIPO DE ABRIGO (SIMPLES),-23.5179815,-47.4706448,URBANO,ABRIGO
800075,MUPI AV.WASHINGTON LUIS - PRAÇA NOVA YORK 1,-23.5179815,-47.4706448,URBANO,MUPI
800076,RICAN AV.WASHINGTON LUIS - PRAÇA NOVA YORK 2 - TIPO DE ABRIGO (SIMPLES),-23.5180706,-47.4707948,URBANO,ABRIGO
800077,MUPI AV.WASHINGTON LUIS - PRAÇA NOVA YORK 2,-23.5180706,-47.4707948,URBANO,MUPI
800078,RICAN AV.JUSCELINO K. DE OLIVEIRA - AO LADO DO Nº 816 - TIPO DE ABRIGO (SIMPLES),-23.5059823,-47.4600661,URBANO,ABRIGO
800079,RICAN AV.JUSCELINO K. DE OLIVEIRA - AO LADO DO ESTAC. DO CENTRO MÉDICO - TIPO DE ABRIGO (SIMPLES),-23.505772,-47.4608494,URBANO,ABRIGO
800080,MUPI AV.JUSCELINO K. DE OLIVEIRA - AO LADO DO ESTAC. DO CENTRO MÉDICO,-23.505772,-47.4608494,URBANO,MUPI
800081,RICAN I AV.JUSCELINO K. DE OLIVEIRA - EM FRENTE A RODOVIÁRIA - TIPO DE ABRIGO (DUPLO),-23.5066338,-47.4577916,URBANO,ABRIGO
800082,RICAN II AV.JUSCELINO K. DE OLIVEIRA - EM FRENTE A RODOVIÁRIA - TIPO DE ABRIGO (DUPLO),-23.5066338,-47.4577916,URBANO,ABRIGO
800083,MUPI AV.JUSCELINO K. DE OLIVEIRA - EM FRENTE A RODOVIÁRIA,-23.5066338,-47.4577916,URBANO,MUPI
800084,VIDRO PRAÇA TANCREDO NEVES - Nº 87 - AV. MOREIRA CÉSAR - TIPO DE ABRIGO (SIMPLES),-23.5050013,-47.4638724,URBANO,ABRIGO
800085,MUPI I PRAÇA TANCREDO NEVES - Nº 87 - AV. MOREIRA CÉSAR,-23.5050013,-47.4638724,URBANO,MUPI
800086,MUPI II PRAÇA TANCREDO NEVES - Nº 87 - AV. MOREIRA CÉSAR,-23.5050013,-47.4638724,URBANO,MUPI
800087,VIDRO AV. ENG. CARLOS REINALDO MENDES - FRONTE PAÇO MUNICIPAL - DROGARIA SÃO PAULO,-23.4774734,-47.4218433,URBANO,ABRIGO
800088,MUPI I AV. ENG. CARLOS REINALDO MENDES - FRONTE PAÇO MUNICIPAL - DROGARIA SÃO PAULO,-23.4774734,-47.4218433,URBANO,MUPI
800089,MUPI II AV. ENG. CARLOS REINALDO MENDES - FRONTE PAÇO MUNICIPAL - DROGARIA SÃO PAULO,-23.4774734,-47.4218433,URBANO,MUPI
800090,RICAN AV.RUDOLF DAFFNER - Nº 74 - TIPO DE ABRIGO (SIMPLES),-23.4737828,-47.4234339,URBANO,ABRIGO
800091,MUPI AV.RUDOLF DAFFNER - Nº 74 - TIPO DE ABRIGO (SIMPLES),-23.4737828,-47.4234339,URBANO,MUPI
800092,AV.RUDOLF DAFFNER - Nº 190 - TIPO DE ABRIGO (SIMPLES),-23.4747187,-47.4246314,URBANO,ABRIGO
800093,MUPI AV.RUDOLF DAFFNER - Nº 190 - TIPO DE ABRIGO (SIMPLES),-23.4747187,-47.4246314,URBANO,MUPI
800094,AV.ROBERTO SIMONSEN I - DEFRONTE A POLICLÍNICA - TIPO DE ABRIGO (TRIPLO),-23.4843802,-47.4425748,URBANO,ABRIGO
800095,AV.ROBERTO SIMONSEN II - DEFRONTE A POLICLÍNICA - TIPO DE ABRIGO (TRIPLO),-23.4843802,-47.4425748,URBANO,ABRIGO
800096,AV.ROBERTO SIMONSEN III - DEFRONTE A POLICLÍNICA - TIPO DE ABRIGO (TRIPLO),-23.4843802,-47.4425748,URBANO,ABRIGO
800097,AV.ROBERTO SIMONSEN I - AO LADO ESCOLA SENAI - TIPO DE ABRIGO (DUPLO),-23.4868059,-47.4486809,URBANO,ABRIGO
800098,AV.ROBERTO SIMONSEN II - AO LADO ESCOLA SENAI - TIPO DE ABRIGO (DUPLO),-23.4868059,-47.4486809,URBANO,ABRIGO
800099,AV. SADRAC DE ARRUDA - DEFRONT DRURY'S - TIPO DE ABRIGO (SIMPLES),-23.4869293,-47.4271233,URBANO,ABRIGO
800100,MUPI AV. SADRAC DE ARRUDA - DEFRONT DRURY'S,-23.4869293,-47.4271233,URBANO,MUPI
800101,RICAN AV. SADRAC DE ARRUDA - EM FRENTE DRURY'S - TIPO DE ABRIGO (SIMPLES),-23.4862792,-47.4277033,URBANO,ABRIGO
800102,MUPI AV. SADRAC DE ARRUDA - EM FRENTE DRURY'S,-23.4862792,-47.4277033,URBANO,MUPI
800103,RUA SANTA ROSÁLIA - LARGO DO LÍDER - TIPO DE ABRIGO (SIMPLES),-23.4931305,-23.4931305,URBANO,ABRIGO
800104,AV. ENG. CARLOS REINALDO MENDES - EM FRENTE A CRECHE DA PREFEITURA - TIPO DE ABRIGO (SIMPLES),-23.4777134,-47.4219429,URBANO,ABRIGO
800105,RICAN I  - AV.INDEPENDÊNCIA - Nº 4241 - TIPO DE ABRIGO (DUPLO),-23.4685099,-47.4242085,URBANO,ABRIGO
800106,RICAN II  - AV.INDEPENDÊNCIA - Nº 4241 - TIPO DE ABRIGO (DUPLO),-23.4685099,-47.4242085,URBANO,ABRIGO
800107,RICAN I AV.INDEPENDÊNCIA - DE FRONT UNIP - TIPO DE ABRIGO (TRIPLO),-23.459879,-47.4216139,URBANO,ABRIGO
800108,RICAN II AV.INDEPENDÊNCIA - DE FRONT UNIP - TIPO DE ABRIGO (TRIPLO),-23.459879,-47.4216139,URBANO,ABRIGO
800109,RICAN III AV.INDEPENDÊNCIA - DE FRONT UNIP - TIPO DE ABRIGO (TRIPLO),-23.459879,-47.4216139,URBANO,ABRIGO
800110,MUPI AV.INDEPENDÊNCIA - DE FRONT UNIP,-23.459879,-47.4216139,URBANO,MUPI
800111,RICAN  AV.INDEPENDÊNCIA - EM FRENT UNIP - TIPO DE ABRIGO (SIMPLES),-23.4595507,-47.4213884,URBANO,ABRIGO
800112,MUPI AV.INDEPENDÊNCIA - EM FRENT UNIP,-23.4595507,-47.4213884,URBANO,MUPI
800113,AV.COMENDADOR PEREIRA INÁCIO - SMARTFIT - CENTRO X BAIRRO - TIPO DE ABRIGO (SIMPLES),-23.5135012,-47.455451,URBANO,ABRIGO
800114,AV.COMENDADOR PEREIRA INÁCIO - SMARTFIT - BAIRRO X CENTRO - TIPO DE ABRIGO (SIMPLES),-23.5134148,-47.4554093,URBANO,ABRIGO
800115,VIDRO RUA CAP. BENTO MASCARENHAS JEQUITINHONHA - Nº 2311 - TIPO DE ABRIGO (SIMPLES),-23.5156433,-47.4751321,URBANO,ABRIGO
800116,MUPI I RUA CAP. BENTO MASCARENHAS JEQUITINHONHA - Nº 2311,-23.5156433,-47.4751321,URBANO,MUPI
800117,MUPI II RUA CAP. BENTO MASCARENHAS JEQUITINHONHA - Nº 2311,-23.5156433,-47.4751321,URBANO,MUPI
800118,RICAN AV. AMÉRICO DE CARVALHO - Nº 1203 - TIPO DE ABRIGO (SIMPLES) - BAIRRO X CENTRO,-23.5160137,-47.4810734,URBANO,ABRIGO
800119,MUPI AV. AMÉRICO DE CARVALHO - Nº 1203 - BAIRRO X CENTRO,-23.5160137,-47.4810734,URBANO,MUPI
800120,RICAN AV. AMÉRICO DE CARVALHO - Nº 1203 - TIPO DE ABRIGO (SIMPLES) - CENTRO X BAIRRO,-23.5158652,-47.4810627,URBANO,ABRIGO
800121,MUPI I AV. AMÉRICO DE CARVALHO - Nº 1203 - CENTRO X BAIRRO,-23.5158652,-47.4810627,URBANO,MUPI
800122,MUPI II AV. AMÉRICO DE CARVALHO - Nº 1203 - CENTRO X BAIRRO,-23.5158652,-47.4810627,URBANO,MUPI
800123,TAXI RUA PEDRO JOSÉ SENGER - Nº 98,-23.4988794,-47.4441663,URBANO,TAXI
800124,TAXI RUA BOLÍVIA,-23.517597,-47.4389121,URBANO,TAXI
800125,TAXI RUA CLAUDIO MANOEL DA COSTA - Nº 234,-23.5090582,-47.4579772,URBANO,TAXI
800126,TAXI AV. DOUTOR AFONSO VERGUEIRO - Nº 1900,-23.4971324,-47.4674086,URBANO,TAXI
800127,TAXI RUA PADRE LUIZ - 17,-23.5010725,-47.4587553,URBANO,TAXI
800128,MUPI I RUA PADRE LUIZ - 17,-23.5010725,-47.4587553,URBANO,MUPI
800129,MUPI II RUA PADRE LUIZ - 17,-23.5010725,-47.4587553,URBANO,MUPI
800130,TAXI LARGO DE SÃO BENTO,-23.5020154,-47.4594125,URBANO,TAXI
800131,TAXI RUA SANTA CRUZ,-23.5036894,-47.4527802,URBANO,TAXI
800132,TAXI AV. LUIZ FERRAZ DE SAMPAIO JUNIOR,-23.4980753,-47.4593358,URBANO,TAXI
800133,TAXI I PRAÇA DR. FERREIRA BRAGA / LARGO DO ROSÁRIO,-23.4989046,-47.4540358,URBANO,TAXI
800134,TAXI II PRAÇA DR. FERREIRA BRAGA / LARGO DO ROSÁRIO,-23.4989046,-47.4540358,URBANO,TAXI
800135,TAXI I PRAÇA DR. ARTHUR FAJARDO / PRAÇA DO CANHÃO,-23.5003157,-47.454106,URBANO,TAXI
800136,TAXI II PRAÇA DR. ARTHUR FAJARDO / PRAÇA DO CANHÃO,-23.5003157,-47.454106,URBANO,TAXI
800137,TAXI PRAÇA NOVE DE JULHO,-23.5031217,-47.4679985,URBANO,TAXI
800138,TAXI PRAÇA FREI BARAÚNA,-23.5023994,-47.4610262,URBANO,TAXI
800139,TAXI RUA PROFESSOR TOLEDO - 320,-23.500316,-47.4634949,URBANO,TAXI
800140,TAXI RUA PANDIÁ CALÓGERAS,-23.5071584,-47.4570747,URBANO,TAXI
800141,TAXI I AV. JUSCELINO KUBITSCHEK I,-23.506401,-47.4569441,URBANO,TAXI
800142,TAXI II AV. JUSCELINO KUBITSCHEK II,-23.5065503,-47.4573107,URBANO,TAXI
800143,TAXI RUA CORONEL NOGUEIRA PADILHA - 1407,-23.5081776,-47.4398573,URBANO,TAXI
800144,TAXI RUA AFONSO PEDRAZZI - 180 - HOSPITAL MODELO,-23.4941036,-47.4730222,URBANO,TAXI
800145,TAXI PRAÇA PIO XII,-23.4862085,-47.4433591,URBANO,TAXI
800146,TAXI RUA UBIRAJARA - 666,-23.4798864,-47.4492059,URBANO,TAXI
800147,"TAXI AV.ITAVUVU, 135",-23.4834152,-47.4719465,URBANO,TAXI
800148,TAXI I RUA NABEK SHIROMA - 175 - HOSPITAL OFTALMOLÓGICO BOS,-23.5153322,-47.4594247,URBANO,TAXI
800149,TAXI II RUA NABEK SHIROMA - 175 - HOSPITAL OFTALMOLÓGICO BOS,-23.5153322,-47.4594247,URBANO,TAXI
800150,TAXI I RUA EUCLIDES DE MOURA - 85 - CAMPOLIM,-23.5234267,-47.4652252,URBANO,TAXI
800151,TAXI II RUA EUCLIDES DE MOURA - 85 - CAMPOLIM,-23.5234267,-47.4652252,URBANO,TAXI
800152,TAXI III RUA EUCLIDES DE MOURA - 85 - CAMPOLIM,-23.5234267,-47.4652252,URBANO,TAXI
800153,TAXI AV. IZORAIDA MARQUES PERES - 401 - SHOPPING IGUATEMI,-23.5334663,-47.4654458,URBANO,TAXI
800154,AV. IPANEMA - TIPO DE ABRIGO (SIMPLES),-23.4836291,-47.4725266,URBANO,ABRIGO
800155,MUPI AV. IPANEMA,-23.4836291,-47.4725266,URBANO,MUPI
800156,AV. IZORAIDA MARQUES PERES - EM FRENTE À TOK&STOK - TIPO DE ABRIGO (SIMPLES),-23.5370458,-47.4659207,URBANO,ABRIGO
800157,MUPI AV. IZORAIDA MARQUES PERES - EM FRENTE À TOK&STOK,-23.5370458,-47.4659207,URBANO,MUPI
800158,AV. IZORAIDA MARQUES PERES - DE FRONTE À TOK&STOK - TIPO DE ABRIGO (SIMPLES),-23.5369942,-47.4657345,URBANO,ABRIGO
800159,MUPI AV. IZORAIDA MARQUES PERES - DE FRONTE À TOK&STOK,-23.5369942,-47.4657345,URBANO,MUPI
800160,AV. GENERAL OSÓRIO - TIPO DE ABRIGO (SIMPLES),-23.4884463,-47.4776565,URBANO,ABRIGO
800161,MUPI I AV. GENERAL OSÓRIO,-23.4884463,-47.4776565,URBANO,MUPI
800162,MUPI II AV. GENERAL OSÓRIO,-23.4884463,-47.4776565,URBANO,MUPI
800163,AV.JOSÉ JOAQUIM LACERDA - TIPO DE ABRIGO (SIMPLES),-23.4776067,-47.4548586,URBANO,ABRIGO
800164,RUA MANOEL LOPES - 442 - TIPO DE ABRIGO (SIMPLES),-23.5081162,-47.4460669,URBANO,ABRIGO
800165,RUA MANOEL LOPES - 248 - TIPO DE ABRIGO (SIMPLES),-23.5076849,-47.4464363,URBANO,ABRIGO
800166,RUA MANOEL LOPES - 172 - TIPO DE ABRIGO (SIMPLES),-23.5063373,-47.4476094,URBANO,ABRIGO
800167,RUA MANOEL LOPES - 39 - TIPO DE ABRIGO (SIMPLES),-23.5052746,-47.4485439,URBANO,ABRIGO
800168,RUA NEWTON PRADO - 280 - TIPO DE ABRIGO (SIMPLES),-23.5043863,-47.4502658,URBANO,ABRIGO
800169,AV. ARTHUR BERNARDES - 1700 - TIPO DE ABRIGO (SIMPLES),-23.4694191,-47.4419524,URBANO,ABRIGO
800170,AV. ARTHUR BERNARDES - 655 - TIPO DE ABRIGO (SIMPLES),-23.477051,-47.4476196,URBANO,ABRIGO
800171,AV. ARTHUR BERNARDES - 23 - TIPO DE ABRIGO (SIMPLES),-23.4819021,-47.4511664,URBANO,ABRIGO
800172,RUA UBIRAJARA - 446 - TIPO DE ABRIGO (SIMPLES),-23.4815636,-47.4507857,URBANO,ABRIGO
800173,RUA UBIRAJARA - FRONTE 110 - TIPO DE ABRIGO (SIMPLES),-23.4837691,-47.4528282,URBANO,ABRIGO
800174,MUPI I - PRAÇA WINSTON CHURCHILL I,-23.4950064,-47.4671734,URBANO,MUPI
800175,MUPI II - PRAÇA WINSTON CHURCHILL I,-23.4950064,-47.4671734,URBANO,MUPI
800176,MUPI I - PRAÇA WINSTON CHURCHILL II,-23.4950064,-47.4671734,URBANO,MUPI
800177,MUPI II - PRAÇA WINSTON CHURCHILL II,-23.4950064,-47.4671734,URBANO,MUPI
800178,MUPI I - PRAÇA JOSÉ DARIO DE OLIVEIRA,-23.524445,-47.4634741,URBANO,MUPI
800179,MUPI II - PRAÇA JOSÉ DARIO DE OLIVEIRA,-23.524445,-47.4634741,URBANO,MUPI
800180,MUPI I - PRAÇA NOVE DE JULHO,-23.5028874,-47.4679216,URBANO,MUPI
800181,MUPI II - PRAÇA NOVE DE JULHO,-23.5028874,-47.4679216,URBANO,MUPI
800182,MUPI PRAÇA ATÍLIO BRUNI (MANGAL),-23.5047091,-47.4702562,URBANO,MUPI
800183,MUPI FLOREIRA AV. VISCONDE DO RIO BRANCO,-23.5101986,-47.4770697,URBANO,MUPI
800184,MUPI PRAÇA ROMEU GIBIM (AV. AMÉRIO FIGUEIREDO),-23.5068564,-47.487605,URBANO,MUPI
800185,MUPI I PRAÇA DR. JOSÉ FAUSTO CAMPOLIM (AV. CARIBE),-23.5212156,-47.4694106,URBANO,MUPI
800186,MUPI II PRAÇA DR. JOSÉ FAUSTO CAMPOLIM (AV. CARIBE),-23.5212156,-47.4694106,URBANO,MUPI
800187,MUPI I FLOREIRA RUA SALVADOR CORREA (VERGUEIRO),-23.5087924,-47.4603899,URBANO,MUPI
800188,MUPI II FLOREIRA RUA SALVADOR CORREA (VERGUEIRO),-23.5087924,-47.4603899,URBANO,MUPI
800189,MUPI I FLOREIRA RUA PAULO SETUBAL (PONTE PINHEIROS),-23.5079303,-47.4508299,URBANO,MUPI
800190,MUPI II FLOREIRA RUA PAULO SETUBAL (PONTE PINHEIROS),-23.5079303,-47.4508299,URBANO,MUPI
800191,MUPI I PRAÇA OXFORD (AV. ARMANDO PANNUNZIO),-23.5115938,-47.4887343,URBANO,MUPI
800192,MUPI II PRAÇA OXFORD (AV. ARMANDO PANNUNZIO),-23.5115938,-47.4887343,URBANO,MUPI
800193,MUPI I PRAÇA JOSÉ CAVALCANTE MAGALHÃES (JARDIM PAULISTANO),-23.5093571,-47.4661192,URBANO,MUPI
800194,MUPI II PRAÇA JOSÉ CAVALCANTE MAGALHÃES (JARDIM PAULISTANO),-23.5093571,-47.4661192,URBANO,MUPI
800195,MUPI PRAÇA SÃO JOSÉ (AV. GAL. CARNEIRO),-23.5043454,-47.4759318,URBANO,MUPI
800196,MUPI I PRAÇA ALEXANDRE VANUCHHI LEME (AV. AFONSO VERGUEIRO),-23.4985712,-47.4703901,URBANO,MUPI
800197,MUPI II PRAÇA ALEXANDRE VANUCHHI LEME (AV. AFONSO VERGUEIRO),-23.4985712,-47.4703901,URBANO,MUPI
800198,MUPI I PRAÇA MARIA BENETTI,-23.4872864,-47.4811475,URBANO,MUPI
800199,MUPI II PRAÇA MARIA BENETTI,-23.4872864,-47.4811475,URBANO,MUPI
821,LED AV CALORS COMITRE N° 275 - CAMPOLIM - EM FRENTE TELHA NORTE,-23.5186964,-47.4642155,URBANO,PAINEL DE LED
556,"AV ANTONIO CARLOS COMITRE, 541 - CAMPOLIM - SENT. SHOPPING IGUATEMI - EM FRENTE TELHA NORTE","-23.5183176,",-47.4643563,URBANO,FRONTLIGHT 
500855,AV ANTONIO CARLOS COMITRE - LD PADARIA REAL III- CAMPOLIM,-23.520598,-47.464476,URBANO,OUTDOOR